Timestamp,controller.r_roll,controller.r_pitch,controller.r_yaw,controller.cmd_thrust,controller.cmd_roll,controller.cmd_pitch,controller.cmd_yaw,controller.accelz
263202,-0.076454296708107,0.005044574383646,0.009585744701326,44809.97265625,4423,4343,31,0.995964586734772
263222,0.082565791904926,-0.089268185198307,0.012358371168375,45197.31640625,12279,4462,142,1.01609826087952
263242,-0.052417725324631,0.009763495065272,0.011656248010695,45183.16796875,21945,6133,-52,0.931995630264282
263262,-0.171892330050468,-0.037079524248839,0.004273123573512,45188.0703125,6208,8765,34,1.0460125207901
263282,-0.01830193027854,-0.02586879208684,0.028905121609569,44958.32421875,5053,8453,214,1.02992510795593
263302,0.12760891020298,0.186465114355087,0.038674984127283,44676.63671875,6240,3414,327,1.01097297668457
263322,-0.040747802704573,0.308723092079163,0.025870937854052,45375.96484375,3345,1045,348,0.990184426307678
263342,-0.064139537513256,0.460572332143784,0.019536502659321,45385.390625,14093,-857,369,0.949599742889404
263362,0.001218893332407,0.420578181743622,0.076594322919846,45368.62890625,9690,403,758,1.00926423072815
263382,-0.130508184432983,0.203195363283157,0.084307074546814,45474.44921875,12945,1905,969,0.989216029644012
263402,-0.081641361117363,0.118532769382,0.12548853456974,45278.640625,10807,5115,1254,1.00969994068146
263422,-0.208510205149651,0.052918236702681,0.15080851316452,46299.76171875,16648,4132,1628,1.04622793197632
263442,-0.26130336523056,0.157928571105003,0.120916984975338,46079.62890625,16766,866,1605,1.01753401756287
263462,-0.160032480955124,0.305514484643936,0.171617239713669,45653.59765625,14317,1624,1770,1.0180823802948
263482,-0.176735296845436,0.201251581311226,0.132219016551971,45487.66015625,17297,2852,1713,0.94571441411972
263502,-0.145583674311638,-0.067055471241474,0.127895548939705,45631.4296875,20942,7675,1824,0.969248414039612
263522,-0.104467779397964,-0.146322175860405,0.138678327202797,47336.60546875,18493,5715,1951,1.01448273658752
263542,-0.162553086876869,-0.096067115664482,0.150018304586411,47146.66015625,19001,6035,2083,1.00930869579315
263562,-0.240717381238937,-0.108002781867981,0.163868397474289,47009.56640625,21108,6976,2166,1.02361273765564
263582,-0.190792843699455,0.005461346358061,0.189245656132698,46595.5546875,20296,3062,2355,1.00723743438721
263602,-0.151324152946472,0.213952407240868,0.218441531062126,46543.83984375,19967,-1103,2708,0.9788538813591
263622,-0.014428657479584,0.385428905487061,0.247605070471764,47909.3671875,13395,-1743,2949,1.00697898864746
263642,0.252326399087906,0.227265074849129,0.241033554077148,47972.2421875,11603,1050,3023,0.976549386978149
263662,0.295469462871552,0.095299504697323,0.282371670007706,48393.125,14243,4097,3606,0.928943574428558
263682,-0.069897741079331,0.045037295669317,0.307259649038315,48520.1796875,17582,3405,3933,0.961993336677551
263702,0.051886267960072,-0.016557183116675,0.307688415050507,48494.1171875,18914,6236,4208,1.04555642604828
263722,-0.038515128195286,0.155420899391174,0.348117768764496,49011.796875,18812,1226,4678,1.02929699420929
263742,-0.125174030661583,0.263058751821518,0.381408482789993,48875.03125,17538,-1748,5183,1.04384934902191
263762,-0.203000798821449,0.269708037376404,0.423448324203491,48726.90234375,19427,-5086,3765,1.00557506084442
263782,-0.201306983828545,0.284544616937637,0.439006388187408,48403.2734375,22053,-647,6170,0.979864954948425
263802,-0.116583988070488,0.302568793296814,0.455071687698364,48614.69140625,19843,-2418,6051,0.958853483200073
263822,0.031113523989916,0.260096907615662,0.472824394702911,50158.8203125,18548,-530,6805,0.978054165840149
263842,0.102666527032852,0.03047632612288,0.463524788618088,50428.44140625,19951,554,8855,0.986562371253967
263862,0.03128981590271,0.036827504634857,0.419122517108917,50613.2421875,21862,-3629,6862,1.01622176170349
263882,-0.129651919007301,0.353887110948563,0.322525858879089,50741.00390625,25452,-9731,7295,1.02803564071655
263902,-0.224309802055359,0.322050660848618,0.302090555429459,50643.01953125,25900,-3987,5432,1.05620038509369
263922,-0.344530373811722,0.185794427990913,0.267788022756577,50465.24609375,29352,-6326,6510,1.00926697254181
263942,-0.369327753782272,0.237098395824432,0.216793790459633,50263.3046875,27941,-9053,5225,0.985228955745697
263962,-0.245104759931564,0.336643606424332,0.176841229200363,50289.67578125,22177,-9756,4958,0.974324345588684
263982,-0.137868762016296,0.304205626249313,0.096554100513458,50768.015625,28746,-14517,6085,0.953707814216614
264002,0.194296330213547,0.281247943639755,0.06174810603261,50394.43359375,31014,-9527,9399,0.963926553726196
264022,0.288145124912262,0.007914092391729,0.016299739480019,51802.69140625,26919,-10429,8097,0.972275853157043
264042,0.088776096701622,-0.087869107723236,-0.008110569790006,52251.609375,17558,-9083,789,1.02139902114868
264062,0.16969645023346,-0.135258749127388,-0.055110458284617,52238.7578125,26345,-9520,2130,1.05332112312317
264082,-0.072616003453732,-0.136360302567482,-0.116551272571087,51986.6640625,32767,-11408,2294,1.01357543468475
264102,-0.511400818824768,-0.095018111169338,-0.168787375092506,50436.00390625,32615,-16046,1832,1.04102921485901
264122,-0.387380421161652,0.019786549732089,-0.248377323150635,51435.08203125,32767,-12929,781,1.05313289165497
264142,-0.193993791937828,-0.108849816024303,-0.19794636964798,51405.3671875,28695,-12348,-16,0.999305903911591
264162,0.363845080137253,-0.390235424041748,-0.183153510093689,50722.82421875,21315,-5736,1900,0.956964492797852
264182,1.1269428730011,-0.930382668972015,-0.162997722625732,51084.1796875,12938,3114,3079,0.940991461277008
264202,1.79928350448608,-1.2871321439743,-0.219983801245689,48958.57421875,2997,2675,12471,0.915160238742828
264222,2.24681353569031,-1.24177134037018,-0.153689578175545,51877.37109375,-8806,7515,911,0.934269845485687
264242,-0.618076801300049,-1.07692801952362,-0.238345265388489,50968.953125,32767,4059,-936,1.23392391204834
264262,-1.08726561069489,-0.708397030830383,-0.312285363674164,49183.046875,32767,4338,-120,0.930030047893524
264282,-0.130742236971855,-0.600439965724945,-0.417105495929718,47502.5546875,20976,1978,3247,0.941593527793884
264302,0.673918426036835,-0.328477948904037,-0.45852193236351,47157.08203125,22866,-1904,-11171,0.975775718688965
264322,0.483388096094132,0.01387547980994,-0.42936110496521,51830.109375,32767,-2857,-2587,1.03895163536072
264342,-0.966127455234528,0.300245523452759,-0.649368166923523,52973.40234375,32767,-2434,5249,1.11470234394073
264362,-0.433705687522888,0.067511267960072,-0.547352612018585,51693.07421875,32767,6277,2766,0.984617710113525
264382,-0.158075496554375,-0.319790422916412,-0.547593951225281,50671.31640625,30397,11746,-5510,1.07282793521881
264402,0.255788207054138,-0.426838666200638,-0.564569890499115,50089.71875,15900,12583,5413,0.965164661407471
264422,1.17975544929504,-0.212221875786781,-0.503198146820068,52561.35546875,3988,5176,4561,0.917233884334564
264442,1.80129361152649,0.242310017347336,-0.412867516279221,53173.5625,11110,4847,4037,0.945561110973358
264462,-0.784372627735138,0.468558192253113,-0.600680828094482,52675.62890625,19125,4723,-8670,1.13827681541443
264482,-0.778836488723755,0.648581862449646,-0.538260459899902,51875.82421875,29154,6439,-15181,0.931045770645142
264502,-0.293311297893524,0.342497617006302,-0.518026351928711,53016.75390625,15540,4913,2002,0.925603687763214
264522,0.726716339588165,0.409973382949829,-0.299132972955704,55456.296875,11805,5245,-3656,0.958152651786804
264542,0.909900069236755,0.310703665018082,-0.43990433216095,56984.85546875,32665,7008,-991,0.984103620052338
264562,-0.427596509456634,-0.021868607029319,-0.409729301929474,55793.4375,32647,12995,-5889,1.0596729516983
264582,-0.600718379020691,-0.165388882160187,-0.4406598508358,56046.95703125,32767,16861,-6130,0.95834344625473
264602,-0.101363360881805,-0.21589469909668,-0.338865995407104,56232.10546875,27140,15475,-5998,0.998579561710358
264622,0.526647806167603,0.193679735064507,-0.251532852649689,57541.99609375,14025,10111,-5622,0.960696578025818
264642,0.553351879119873,0.365674644708633,-0.275750011205673,55306.41015625,30993,11881,-6191,1.0468475818634
264662,-0.947908878326416,0.272096782922745,-0.267514795064926,55881.53515625,32767,9295,-6317,1.05168032646179
264682,-0.346234887838364,0.203433647751808,-0.274800032377243,55471.96484375,11859,15496,-7207,0.919718384742737
264702,0.737178921699524,0.310220628976822,-0.220226868987083,55177.1640625,22902,12368,-6350,0.992597699165344
264722,0.332916349172592,0.540592432022095,-0.124387942254543,56819.4921875,32767,8496,-6601,1.04866504669189
264742,0.151010438799858,0.639346480369568,-0.149523332715035,54562.7890625,29357,6920,-6585,1.02322018146515
264762,0.037297137081623,0.443848788738251,0.007487466558814,54741.5234375,24322,11454,-5719,1.01959526538849
264782,0.474823415279388,0.305505096912384,-0.051569864153862,53492.74609375,18551,11094,-6678,0.986738324165344
264802,0.997330904006958,0.361354976892471,0.166278645396233,53367.3828125,11755,6657,-4376,1.0093606710434
264822,0.668917655944824,0.254721283912659,0.086451709270477,55213.9609375,32767,3697,-4686,1.09616589546204
264842,-0.214521422982216,0.308645933866501,0.241636663675308,53208.1328125,29476,4376,-3626,1.07529163360596
264862,0.815599858760834,0.300759315490723,0.300381720066071,51891.87109375,10627,386,-3097,0.946570694446564
264882,1.44136798381805,0.46724808216095,0.369985699653625,51617.1953125,1671,-1630,-2665,0.983763098716736
264902,1.14812994003296,0.49579980969429,0.451738804578781,50267.15625,23464,648,-1419,1.03041183948517
264922,0.662497520446777,0.232381656765938,0.411117672920227,55149.7890625,15749,440,-1691,0.987209916114807
264942,0.229936495423317,-0.137951672077179,0.475128918886185,54731.19921875,12245,3510,-648,1.04034626483917
264962,1.10941231250763,-0.322179615497589,0.518227994441986,55415.76953125,-356,930,114,0.967590808868408
264982,1.41318583488464,-0.202647119760513,0.56599497795105,54322.8359375,-16371,1204,754,1.03066420555115
265002,1.18563461303711,-0.106081679463387,0.554679155349731,54151.0390625,-10039,-4388,1624,1.03856956958771
265022,0.925502419471741,-0.049866311252117,0.540932357311249,58485.00390625,-11347,-2583,1863,1.02058935165405
265042,0.619211733341217,-0.340223580598831,0.529879093170166,58566.5859375,-11685,2322,2160,1.0273185968399
265062,0.047251615673304,-0.71663099527359,0.499834656715393,58138.08203125,-2575,6241,2987,1.01593029499054
265082,-0.462064325809479,-0.945718944072723,0.525775611400604,59456.484375,-431,7144,3722,1.04135704040527
265102,-0.815667927265167,-1.01760077476501,0.486481010913849,61679.71484375,2670,5357,4166,1.04977989196777
265122,-1.08217549324036,-0.787635326385498,0.480108559131622,59879.640625,4138,2645,4350,1.06703448295593
265142,-1.25706422328949,-0.46202751994133,0.405792564153671,60534.453125,5862,3187,4358,1.07338798046112
265162,-1.37113070487976,-0.325424075126648,0.374344676733017,61006.69140625,4497,-2666,4364,1.07507407665253
265182,-1.4069037437439,0.005565457977355,0.382107317447662,61520.48046875,5975,-1843,4591,1.05462491512299
265202,-1.44461536407471,0.016371442005038,0.289683848619461,55602.859375,7723,-2238,4180,1.07312262058258
265222,-1.48609781265259,-0.035823237150908,0.2240209877491,56377.015625,11187,-5210,4008,1.10850834846497
265242,-1.51365911960602,-0.153635799884796,0.179380148649216,53615.33203125,9877,496,3831,1.08596050739288
265262,-1.28555524349213,-0.225964710116386,0.083695411682129,52673.39453125,8742,-1131,3311,1.04913580417633
265282,-1.07002806663513,-0.193334192037582,0.090112984180451,50797.0625,4494,-1534,3503,1.03736364841461
265302,-0.816811800003052,-0.308162987232208,-0.02287608012557,48097.66796875,5071,1661,2905,1.0162433385849
265322,-0.623874366283417,-0.267786413431168,0.008156134746969,51729.70703125,9722,1214,3084,0.969631493091583
265342,-0.310698419809341,-0.067829519510269,-0.074575610458851,51329.52734375,7605,-688,2500,0.928140103816986
265362,-0.010653395205736,0.069710485637188,-0.064751394093037,51161.58984375,5488,-1089,2604,0.942092597484589
265382,0.216624841094017,0.085431076586247,-0.090381883084774,51116.6015625,1990,459,2313,0.95728725194931
265402,0.401647984981537,0.035520110279322,-0.106876641511917,51088.72265625,2224,-258,2229,0.939252495765686
265422,0.480014115571976,0.035630267113447,-0.115648664534092,54283.9765625,4305,750,2094,0.925867080688477
265442,0.606050133705139,0.068897537887096,-0.103995583951473,54599.375,3354,1188,1970,0.928800284862518
265462,0.71102237701416,0.090528093278408,-0.120804823935032,54889.5703125,3405,866,1757,0.953959345817566
265482,0.66310042142868,0.086998023092747,-0.120750732719898,55040.4296875,1329,544,1823,0.959312319755554
265502,0.697880148887634,0.031086599454284,-0.138477057218552,55161.30859375,2001,2136,1715,0.981094896793366
265522,0.669118106365204,0.097171105444431,-0.150172591209412,57639.66015625,2895,1928,1288,0.972395837306976
265542,0.644203722476959,0.080521933734417,-0.16738672554493,57785.4140625,1004,-271,1038,1.00973701477051
265562,0.577224791049957,0.065699070692062,-0.14152355492115,57778.5234375,2391,2185,1186,1.01488995552063
265582,0.524425208568573,0.017285807058215,-0.176832512021065,57820.2578125,1764,4463,862,1.01460540294647
265602,0.393270373344421,-0.009319382719696,-0.151658967137337,57695.11328125,3064,3316,907,1.03148472309113
265622,0.396180957555771,-0.019923387095332,-0.153787836432457,59113.61328125,1250,4459,720,1.02050197124481
265642,0.359572649002075,0.020308133214712,-0.144310966134071,59127.96875,4178,1473,710,1.0445761680603
265662,0.245782181620598,0.143193796277046,-0.100443467497826,59041.8671875,4740,2865,971,1.05126929283142
265682,0.151408135890961,0.108942322432995,-0.111994192004204,58825.0859375,3250,2635,746,1.04600632190704
265702,0.108871482312679,0.120666332542896,-0.066307127475739,58606.9609375,554,1884,869,1.05010938644409
265722,0.076758302748203,0.076213158667088,-0.060401130467653,58741.9453125,2671,1668,849,1.05761659145355
265742,0.015943489968777,0.070633046329022,-0.049738328903914,58522.0703125,5529,4394,966,1.03753626346588
265762,-0.000812112935819,0.128080382943153,-0.009019625373185,58325.69921875,5044,1839,1209,1.0399044752121
265782,-0.086593791842461,0.124173857271671,-0.028864853084087,57996.96875,2533,3457,1069,1.06301856040955
265802,-0.037432845681906,0.166980475187302,0.038419701159,57810.19140625,2411,1605,1460,1.04076981544495
265822,-0.186947613954544,0.168050095438957,0.032786507159472,58323.75,-718,4241,1507,1.02222836017609
265842,-0.043903712183237,0.198968276381493,0.040885929018259,58066.8515625,538,2672,1469,1.04802799224854
265862,-0.097023732960224,0.190645113587379,0.076898746192455,57630.515625,2922,824,1875,1.03803074359894
265882,-0.083880729973316,0.130610212683678,0.098679147660732,57486.06640625,2755,3024,1968,1.02956438064575
265902,-0.161374449729919,0.044777400791645,0.090241655707359,57194.53125,214,3013,2146,1.04068720340729
265922,-0.094127982854843,-0.027286948636174,0.138264164328575,57025.2890625,619,1665,2509,1.02103352546692
265942,-0.213303938508034,0.036142833530903,0.129495680332184,56672.19140625,2433,831,2629,1.0427120923996
265962,-0.15233014523983,0.025786751881242,0.136609956622124,56461.61328125,-742,2311,2670,1.03562819957733
265982,-0.2553471326828,0.046147834509611,0.11567959189415,56146.12109375,-145,1679,2736,1.00334584712982
266002,-0.09964906424284,0.121474340558052,0.139915496110916,56028.3046875,411,-686,3016,1.00890243053436
266022,-0.125381171703339,0.058806139975786,0.096468329429627,55736.30078125,1896,195,2783,1.03167569637299
266042,-0.107257895171642,0.049302935600281,0.095690406858921,55442.890625,3657,1181,2880,0.986163556575775
266062,-0.179982990026474,0.032012227922678,0.077998861670494,55348.08984375,886,1056,1949,1.01371264457703
266082,-0.104871362447739,-0.075138099491596,0.051963992416859,55104.98828125,3630,2390,2866,1.01474809646606
266102,-0.193747207522392,-0.091222636401653,0.02586916834116,54965.21484375,464,1609,1696,0.99075585603714
266122,-0.063577950000763,-0.079530239105225,0.040640328079462,55000.37890625,2293,2038,2183,0.99657267332077
266142,-0.038445547223091,-0.109401501715183,0.012801455333829,54864.70703125,3139,2047,1854,0.99492073059082
266162,0.007689563557506,-0.124649986624718,-0.007956116460264,54794.7734375,3012,759,2959,0.982192993164062
266182,-0.030820297077298,-0.10006295144558,0.000769424135797,54610.52734375,-765,-11,2352,1.00566339492798
266202,0.027520565316081,-0.145498260855675,-0.007759479340166,54585.23046875,1106,2615,2679,1.00034821033478
266222,0.049709431827068,-0.171318471431732,-0.036028638482094,54197.359375,2423,1496,1871,0.98187243938446
266242,0.015842074528337,-0.052853468805552,-0.001000683871098,54062.26953125,1294,1457,2290,0.978133618831634
266262,0.066704288125038,-0.158002778887749,-0.052194993942976,53984.84765625,-401,1801,1738,0.995793700218201
266282,0.065111570060253,-0.069372996687889,-0.038991302251816,53922.16015625,3749,-133,2757,0.985007703304291
266302,0.039678364992142,-0.069778271019459,-0.040991928428412,53980.44921875,3072,2113,3097,0.970645904541016
266322,0.108772270381451,-0.163912117481232,-0.067223057150841,53476.98046875,4336,1029,1895,0.97505533695221
266342,0.017371797934175,-0.099116966128349,-0.018276691436768,53453.48828125,2518,3646,3037,0.982435047626495
266362,0.009277713485062,-0.145545184612274,-0.042761359363794,53350.3125,136,2376,2217,0.970628142356873
266382,0.014518520794809,-0.114151298999786,-0.085636623203755,53358.17578125,-3071,2541,2280,0.975919127464294
266402,-0.077776126563549,0.002142586745322,-0.016185306012631,53446.5859375,383,-1494,1841,0.97478437423706
266422,-0.05676019191742,0.06854160875082,-0.043694034218788,53537.86328125,1836,1527,1736,0.959718108177185
266442,-0.038776822388172,0.029486438259482,-0.06426002830267,53494.66796875,2826,1672,2103,0.979278147220612
266462,-0.076435193419457,0.035798024386168,-0.025365862995386,53516.80078125,2037,1555,2611,0.968855082988739
266482,-0.100033409893513,-0.008305627852678,-0.053676716983318,53494.45703125,2656,1536,2261,0.980358064174652
266502,-0.064368613064289,-0.0059784501791,-0.050918512046337,53473.859375,1310,1808,2295,0.975589036941528
266522,-0.044170431792736,0.049707684665918,-0.026312811300159,53840.56640625,1901,386,2301,0.97974169254303
266542,0.028561836108565,0.069801233708859,-0.035264816135168,53912.69921875,2683,2014,1707,0.983199656009674
266562,0.046438284218311,0.05308124423027,-0.035783383995295,53890.84375,2759,657,1911,0.967948973178864
266582,0.050557550042868,0.079511128365994,-0.017361076548696,53923.24609375,3210,2345,1872,0.982886672019958
266602,0.080609850585461,-0.002581001026556,-0.062916308641434,53897.484375,2034,1828,1885,0.9872927069664
266622,0.031167270615697,-0.006133912596852,-0.012336959131062,53906.75390625,2057,102,1980,0.993366479873657
266642,0.049471698701382,0.080667734146118,-0.010391375049949,53846.47265625,3172,2374,1910,0.979971945285797
266662,0.050593607127667,0.003839182201773,-0.012317449785769,53845.92578125,1649,-6,1612,0.987935543060303
266682,0.095004059374333,0.051905699074268,0.045367062091827,53808.734375,1049,2453,2342,0.98240339756012
266702,0.105926968157291,-0.008115081116557,0.006522872019559,53822.671875,-996,2733,2176,1.00580608844757
266722,0.097834847867489,-0.027495151385665,0.021292816847563,53824.73046875,2561,2026,2352,0.968272626399994
266742,0.093186922371388,0.048996575176716,0.062196750193834,53863.1171875,2108,1246,2514,0.971574366092682
266762,0.086894027888775,-0.011126981116831,0.00895969197154,53858.77734375,1033,2049,2355,0.979670464992523
266782,0.056247748434544,0.017066659405828,0.045317202806473,54011.83984375,1224,765,2560,0.998421967029572
266802,-0.039640955626965,0.120520055294037,0.052952956408262,53737.2890625,1373,3142,2603,0.975404798984528
266822,-0.019942415878177,0.063962481915951,-0.003359281457961,53919.6640625,1998,1867,2318,0.97302371263504
266842,-0.049665678292513,0.069285698235035,0.04725967720151,53971.0390625,1944,-165,2727,0.985970735549927
266862,-0.056625999510288,0.077961176633835,0.037773225456476,53991.56640625,4364,1072,2660,0.970909714698792
266882,-0.126326590776443,-0.031443450599909,-0.005162217188627,53943.234375,1044,2725,2387,1.00249171257019
266902,-0.108078598976135,-0.027761979028583,0.030442152172327,53959.92578125,3455,489,2749,0.988726735115051
266922,-0.157309040427208,0.01387351565063,0.029533693566918,54080.11328125,2205,32,2784,0.976267516613007
266942,-0.136253863573074,-0.003230775007978,-0.017915287986398,54119.2109375,4732,1303,2460,0.970012962818146
266962,-0.023552158847451,0.010315033607185,0.003280945587903,54165.16015625,3776,2465,2618,0.996860682964325
266982,-0.01255177333951,-0.017986541613937,0.029710955917835,54174.51171875,4875,879,2775,0.981443405151367
267002,0.039535786956549,-0.082344695925713,-0.001763788401149,54193.0625,3637,1369,2477,0.999210476875305
267022,0.030137056484819,-0.103548936545849,0.007370982784778,54125.01171875,3036,1565,2712,0.977927446365356
267042,0.05944125726819,-0.045242782682181,0.030791049823165,54168.5859375,1725,1694,2825,1.0010724067688
267062,0.065241329371929,-0.063065446913242,0.026146529242396,54142.68359375,2289,3053,2717,0.976561069488525
267082,0.081033401191235,-0.060767702758312,-0.008076390251517,54197.046875,-1043,2960,2640,1.00400924682617
267102,0.083705544471741,-0.030738795176149,0.012552556581795,54164.6171875,1819,1700,2827,0.996355354785919
267122,0.101820439100266,0.008020489476621,-0.003488380461931,54437.390625,3105,701,2583,0.983109176158905
267142,0.100725039839745,-0.00287512387149,-0.030837137252092,54412.78125,3200,2196,2542,0.996325254440308
267162,0.137624859809875,0.032673884183169,-0.017809871584177,54446.64453125,1196,1171,2613,0.998726189136505
267182,0.091930039227009,-0.004072272684425,0.002370882546529,54436.30078125,622,1920,2694,1.00546479225159
267202,0.084262244403362,-0.112142339348793,-0.035385638475418,54443.41796875,-877,3384,2432,0.983002841472626
267222,0.072119392454624,-0.078569047152996,-0.031557999551296,54853.42578125,1471,2155,2444,1.00124478340149
267242,0.057181514799595,-0.073769509792328,-0.023913990706205,54895.6484375,4552,2484,2462,0.980466604232788
267262,-0.000683799036779,0.001619378686883,-0.040188111364842,54948.93359375,1602,1361,2428,1.01768124103546
267282,-0.002993924310431,0.006159381940961,-0.026114389300346,54914.09765625,2005,1135,2468,0.988422214984894
267302,-0.003489570459351,0.013038722798228,-0.010454077273607,54930.109375,944,1787,2520,1.01412737369537
267322,0.037122506648302,-0.035261936485767,-0.034084253013134,54954.0546875,382,2416,2338,0.997287809848785
267342,0.062014024704695,-0.012195783667266,-0.025695076212287,54973.8515625,705,1813,2444,1.00601541996002
267362,-0.00765940034762,-0.025358511134982,-0.014907726086676,54928.359375,2989,3135,2448,0.9970263838768
267382,0.021288920193911,-0.02602624706924,-0.0291718095541,54947.375,2159,3555,2319,0.997007429599762
267402,-0.071374714374542,-0.00947351846844,-0.032666824758053,54925.828125,2108,1358,2391,1.02211236953735
267422,-0.064522847533226,0.065564893186092,-0.00193712383043,54930.19921875,2348,1539,2510,0.987894177436829
267442,-0.02729906141758,0.022898266091943,-0.03118984028697,54930.03125,2249,1656,2309,1.01298820972443
267462,-0.035430427640677,0.087197586894035,0.006701167207211,54874.82421875,1554,2198,2616,0.989410579204559
267482,-0.068906016647816,0.027630040422082,-0.021345518529415,54896.0234375,515,2024,2344,1.01498675346375
267502,-0.03075684979558,0.057368919253349,0.005892510525882,54843.17578125,3515,1989,2652,0.996263682842254
267522,-0.062061510980129,0.071098923683167,0.011683270335198,54893.28125,4418,3311,2600,0.996535301208496
267542,0.005475919693708,0.012533801607788,-0.013965351507068,54823.48828125,3351,3962,2467,0.999845564365387
267562,-0.03828227519989,0.026999142020941,0.012284634634853,54832.03515625,2532,2542,2724,1.00979053974152
267582,-0.058885239064694,0.058613363653421,0.018878221511841,54758.30078125,1371,3030,2749,1.00787937641144
267602,-0.045806095004082,0.017028499394655,0.004876600578427,54723.00390625,2593,3374,2665,0.993047416210175
267622,-0.052181985229254,0.071372516453266,0.056120056658983,54886.5625,2162,1060,3053,1.01171004772186
267642,-0.053322818130255,0.062043409794569,0.00820058491081,54833.19921875,763,729,2763,1.00255000591278
267662,0.033593039959669,0.026404624804854,0.0285465400666,54819.734375,1138,1873,2886,1.0023078918457
267682,-0.038257159292698,0.066534534096718,0.054794952273369,54767.0703125,982,512,3121,0.988598465919495
267702,0.010920878499746,0.013516012579203,0.010287477634847,54799.3046875,2572,3455,2887,1.00937700271606
267722,0.006729461718351,-0.001257086754777,0.032570470124483,54691.1640625,5477,2506,3077,1.00653469562531
267742,-0.043447077274323,0.00935470033437,0.050796147435904,54675.25,3396,2658,3279,0.990669071674347
267762,0.010668586939573,0.028954902663827,0.004439614247531,54650.640625,149,3590,2953,1.0127739906311
267782,0.114781692624092,-0.0131432749331,0.013666733168066,54607.69140625,2395,1821,3021,0.990848064422607
267802,0.035584978759289,0.039165914058685,0.054056979715824,54585.6171875,932,402,3373,1.006840467453
267822,-0.003550763474777,-0.001054390799254,0.010022304952145,54722.75390625,628,2090,3076,1.00275552272797
267842,0.049724154174328,0.013890532776713,0.035026844590902,54707.42578125,4919,895,3305,0.994163513183594
267862,0.006171231623739,-0.017470024526119,0.024197906255722,54676.421875,2914,2868,3212,0.991565227508545
267882,0.080784521996975,-0.007712183985859,-0.017753213644028,54677.6484375,3339,2213,2955,0.994853079319
267902,0.038233418017626,-0.019314529374242,0.017408913001418,54648.62890625,3753,754,3240,1.02927935123444
267922,-0.020555444061756,-0.010986723005772,-0.006205717567354,54652.7890625,1483,2843,3076,0.989431858062744
267942,0.037952370941639,-0.064336821436882,-0.006648865994066,54624.921875,-466,1873,3092,1.01309847831726
267962,0.054052092134953,-0.04483487084508,0.010873910970986,54604.59765625,1238,1625,3208,0.998082041740418
267982,0.050084672868252,-0.089266262948513,0.011718439869583,54638.5625,372,3777,3208,0.999769389629364
268002,0.032304104417563,-0.074062839150429,0.033262632787228,54583.41015625,-1002,356,3443,1.0041424036026
268022,0.036909393966198,-0.074311554431915,0.022402690723538,54514.53125,2344,1331,3402,1.00568675994873
268042,-0.00790255703032,-0.15751713514328,0.017721448093653,54449.40625,2920,2332,3392,0.994987905025482
268062,0.031007984653115,-0.126388445496559,0.026197705417872,54431.26953125,-440,1327,3421,0.992785930633545
268082,0.058809261769056,-0.130003452301025,0.018606465309858,54404.34375,-264,1205,3471,1.01368737220764
268102,0.006935201585293,-0.061273105442524,0.000172334024683,54356.109375,3103,2286,3305,0.98421174287796
268122,0.004802816081792,-0.046248830854893,-0.017771074548364,54541.61328125,2213,1237,3199,0.988760948181152
268142,-0.014732386916876,-0.084541656076908,-0.003964146599174,54539.1875,4599,2720,3343,1.00513780117035
268162,-0.018807420507073,-0.023459726944566,-0.004331784788519,54548.04296875,4134,2492,3377,0.996015429496765
268182,-0.023502502590418,-0.02011944167316,-0.033857442438603,54540.203125,529,1388,3090,1.01321232318878
268202,0.002969590947032,0.04245251044631,-0.010724286548793,54484.21875,-1337,2467,3235,0.994535267353058
268222,-0.015973195433617,0.015269998461008,-0.023469742387533,54798.66015625,3947,2028,3231,1.00992476940155
268242,-0.06832430511713,0.004898699466139,-0.004005121998489,54761.42578125,2728,1163,3269,0.98374217748642
268262,-0.067947752773762,-0.005814041942358,-0.044512435793877,54781.80859375,4135,2245,3076,1.00737392902374
268282,-0.010298061184585,0.003415949409828,-0.036120939999819,54734.92578125,4478,1699,3151,1.00413501262665
268302,-0.055085834115744,0.006714440416545,-0.03315806761384,54747.02734375,860,2930,3014,0.99470329284668
268322,-0.050504680722952,0.00562216155231,-0.043120171874762,54802.65234375,1157,2718,2985,1.01253151893616
268342,-0.021755995228887,0.06568917632103,-0.066047467291355,54764.8046875,5398,2300,2951,0.997819066047668
268362,-0.071795925498009,0.0704375654459,-0.043676227331162,54750.96484375,5554,279,2575,1.00474894046783
268382,-0.078432880342007,0.061165619641543,-0.067914485931397,54675.5625,3242,224,2653,0.996297180652618
268402,-0.033637251704931,0.035893525928259,-0.055288314819336,54668.4296875,6160,433,2896,1.0112007856369
268422,-0.023042434826493,-0.010433896444738,-0.073206759989262,54449.234375,3551,1640,2510,0.99647855758667
268442,-0.053594067692757,-0.077098794281483,-0.053320333361626,54395.15234375,3722,1056,2668,1.02082371711731
268462,-0.050144784152508,-0.133995413780212,-0.066223204135895,54326.4140625,2517,1038,2437,0.995041012763977
268482,-0.058603074401617,-0.129374966025352,-0.09061174094677,54317.3671875,5192,1307,2240,1.00825572013855
268502,-0.037354655563831,-0.137210354208946,-0.071800164878368,54285.66796875,3345,1620,2477,1.00479352474213
268522,-0.05196176096797,-0.076284192502499,-0.076785400509834,54300.9921875,3852,1741,2340,1.0124648809433
268542,-0.001448746887036,-0.098914876580238,-0.078192621469498,54217.92578125,4364,-663,2258,1.00383365154266
268562,0.028574971482158,-0.104137867689133,-0.07904014736414,54170.4609375,4119,-953,2154,1.00387465953827
268582,0.027184093371034,-0.105830393731594,-0.051019798964262,54117.05859375,4466,371,2147,1.00763416290283
268602,0.024026475846768,-0.154951259493828,-0.069722384214401,54038.39453125,3007,1931,1863,1.00401270389557
268622,0.034465242177248,-0.116109222173691,-0.016548074781895,54124.09375,6162,859,2523,1.00136375427246
268642,0.104361169040203,-0.195200458168983,-0.033364772796631,54079.37890625,4083,2351,2265,0.996625483036041
268662,0.025515327230096,-0.141527950763702,-0.014968833886087,54080.27734375,3104,55,2701,1.01729273796082
268682,0.00971635710448,-0.175411894917488,-0.031956445425749,54035.6640625,1760,535,2548,0.996133685112
268702,0.088565595448017,-0.160815581679344,-0.037939246743918,53977.328125,6176,799,2069,0.996035397052765
268722,0.103231407701969,-0.070294946432114,0.000932320952415,54441.62109375,4882,-1321,1752,0.986304521560669
268742,0.112894803285599,-0.11489050835371,-0.034827139228582,54474.0703125,3535,999,2264,1.00979804992676
268762,0.030396861955524,-0.027376050129533,0.005835505202413,54393.5078125,2532,-376,2856,0.99705582857132
268782,0.018788317218423,-0.025575211271644,-0.035641085356474,54419.53515625,1910,511,2662,1.01187300682068
268802,0.020635386928916,-0.034895461052656,-0.019767111167312,54441.140625,4099,-707,2777,0.995034039020538
268822,0.041703376919031,0.056249096989632,-0.018851134926081,54523.27734375,5220,-1054,2737,1.00893068313599
268842,0.122417472302914,0.046762235462666,-0.054590411484242,54511.19140625,6712,205,1904,1.00288152694702
268862,0.079295597970486,0.089645810425282,-0.007734578568488,54415.171875,1362,-593,2973,1.02196156978607
268882,0.039163339883089,0.032528299838305,-0.011624898761511,54415.8359375,2686,275,2078,1.0069659948349
268902,-0.005303679499775,0.024153262376785,-0.025321455672383,54338.56640625,4607,403,1716,1.00086557865143
268922,0.011746793985367,0.113404124975204,-0.012745751999319,54312.9921875,6537,831,2389,0.999195218086243
268942,0.046017691493034,0.07528954744339,-0.028572853654623,54336.4375,4035,1110,2399,1.00735628604889
268962,0.012235695496202,0.13336381316185,-0.026911927387118,54283.7421875,4012,-1385,2585,1.01318335533142
268982,0.002645969158039,0.158773615956306,-0.008810352534056,54250.078125,5865,698,2002,0.993924736976624
269002,0.054469790309668,0.125160604715347,-0.058273542672396,54121.19140625,6225,151,1978,1.00310003757477
269022,0.028265489265323,0.200683563947678,-0.002181846648455,53951.5546875,4798,993,1954,1.00748765468597
269042,0.021403823047876,0.078399933874607,-0.045293837785721,53914.57421875,2560,-576,2396,1.00609815120697
269062,-0.048136238008738,0.135479629039764,-0.000445736863185,53819.03515625,4298,-2478,2525,0.995761573314667
269082,-0.034498769789934,0.112585477530956,-0.010010838508606,53693.5859375,4008,764,2120,0.995185554027557
269102,-0.031691826879978,0.018033349886537,-0.026158899068832,53683.78125,4645,-875,2128,0.986098766326904
269122,0.015324383042753,0.081558577716351,0.02510042116046,53982.3046875,4748,-1612,2494,1.0089168548584
269142,-0.0030133635737,0.045825514942408,-0.015285238623619,54013.13671875,4093,2106,2169,0.997561097145081
269162,-0.003996083512902,0.096276611089707,0.041919972747564,53982.515625,5449,-574,2538,1.00126695632935
269182,0.014461041428149,0.089863523840904,0.024457585066557,53703.37109375,2698,627,2421,0.990766406059265
269202,0.070191189646721,0.015764426440001,5.70038937439676E-05,53845.6484375,7545,-639,2416,0.997778475284576
269222,0.033276978880167,0.065083801746368,0.058616355061531,53861.4609375,3460,-1001,2746,1.00709891319275
269242,0.0257175154984,-0.002505410462618,0.01083298958838,53870.48046875,4849,1800,2541,1.00062620639801
269262,-0.026560852304101,0.171274706721306,0.063601240515709,53820.8828125,2858,3558,2776,0.99508535861969
269282,-0.043948672711849,0.372872650623322,0.04199680685997,53698.5390625,2336,-876,2729,1.00332605838776
269302,0.004415320232511,0.506312787532806,-0.009346937760711,53677.55859375,3439,-2302,2468,0.987102031707764
269322,0.035497613251209,0.714561879634857,0.039025865495205,54038.65234375,4182,-2679,2784,1.00432586669922
269342,-0.012613327242434,0.593519270420074,0.008281565271318,54040.5546875,1648,-192,2506,0.990689694881439
269362,-0.036011289805174,0.410285800695419,-0.004422775004059,54038.14453125,5129,-1795,2591,1.00056314468384
269382,-0.081762179732323,0.27011901140213,0.040889441967011,54026.39453125,5029,-924,2789,0.980162084102631
269402,-0.047145783901215,0.052893128246069,-0.014127277769148,54067.52734375,7387,1557,2547,1.00070643424988
269422,-0.04355176910758,0.03979204967618,0.025194961577654,54124.41015625,5710,209,2889,1.0020067691803
269442,-0.011097583919764,0.100724093616009,0.013394856825471,54152.109375,4600,2276,2630,0.988322496414185
269462,0.04520670697093,0.036479152739048,-0.015197184868157,54125.703125,5221,-226,2551,0.986768662929535
269482,0.032341230660677,0.122057966887951,0.022663217037916,54168.71484375,1748,-1578,2819,1.0125972032547
269502,-0.000538653810509,-0.040663555264473,-0.005613090936095,54159.07421875,2365,1247,2554,0.996112823486328
269522,0.02471723780036,-0.129479467868805,-0.018806301057339,54356.28125,5461,690,2559,0.996041357517242
269542,-0.026442321017385,-0.074744611978531,0.014085803180933,54363.78515625,4614,490,2768,0.992728650569916
269562,0.05482766777277,-0.235238313674927,-0.046369235962629,54401.08984375,4512,1096,2405,1.01477444171906
269582,-0.061909291893244,-0.168041467666626,0.010986303910613,54352.0625,1077,-702,2805,1.01446485519409
269602,-0.07967820763588,-0.21894896030426,-0.021274199709296,54351.44921875,5854,2425,2480,1.01318001747131
269622,0.019663529470563,-0.258289843797684,-0.052455052733421,54311.1953125,5196,1651,2314,0.996163368225098
269642,0.02055167965591,-0.170981958508492,-0.000405352649977,54299.1328125,5629,396,2561,1.00811505317688
269662,0.084218606352806,-0.279362797737122,-0.0651850476861,54220.56640625,2355,1020,2196,1.00685584545136
269682,-0.06862273067236,-0.205104991793632,-0.030740240588784,54215.9140625,4330,-2343,2408,1.02601027488709
269702,-0.021505197510123,-0.241093248128891,-0.04637748375535,54138.13671875,4402,1999,2264,0.992189705371857
269722,0.029109582304955,-0.318436324596405,-0.073617644608021,54149.984375,3907,2318,1985,1.00489223003387
269742,0.049994770437479,-0.247314944863319,-0.047395341098309,54094.38671875,6086,-340,2189,0.998312592506409
269762,-0.001101332134567,-0.199171617627144,-0.052523728460074,54060.2265625,3871,2924,2031,1.00934386253357
269782,0.023591984063387,-0.187686324119568,-0.056178487837315,54000.828125,5514,378,2045,1.00067317485809
269802,-0.014077770523727,-0.193387389183044,-0.046391416341066,53953.625,3358,1315,1995,1.00535809993744
269822,0.011771451681852,-0.149185255169869,-0.053787656128407,53899.81640625,3674,752,1982,1.00329375267029
269842,-0.052692744880915,-0.159972488880158,-0.03983698040247,53874.17578125,4703,2981,1972,1.00301921367645
269862,0.003185452427715,-0.157336533069611,-0.03428815677762,53841.765625,6336,559,2071,0.993719696998596
269882,0.000847740098834,-0.113883666694164,-0.033887661993504,53826.83203125,5985,461,1997,1.00783562660217
269902,0.026399431750178,-0.072193004190922,-0.017571887001395,53780.04296875,4788,1497,2118,1.00130474567413
269922,-0.030049100518227,-0.051796294748783,-0.024551352486014,54160.34765625,5405,694,2014,1.00473761558533
269942,0.044973991811276,-0.061899237334728,-0.026869934052229,54134.41796875,5530,272,2062,0.986302256584168
269962,0.024584261700511,0.0242631547153,-0.000605857290793,54182.05078125,4638,420,2155,1.01037538051605
269982,-0.009421149268746,-0.052806925028563,-0.00404297048226,54130.71484375,2640,280,2130,1.00451982021332
270002,-0.05728405341506,-0.032779797911644,-0.004121954552829,54127.70703125,6218,2829,2160,1.00980234146118
270022,0.014512474648655,0.011975831352174,-0.011030406691134,53985.78515625,6623,919,2142,0.992006719112396
270042,-0.004794639535248,0.041724901646376,-0.001434339443222,53970.921875,6259,1840,2106,1.00781059265137
270062,0.013708497397602,0.057428579777479,-0.010931775905192,53901.05078125,5659,1134,2110,1.00621092319489
270082,-0.001320685492828,0.098536588251591,0.010551624000073,53876.40234375,6093,1139,2215,1.00760972499847
270102,0.044476307928562,0.018756313249469,-0.015019204467535,53813.46875,5046,1219,2093,1.00185072422028
270122,0.018573055043817,0.10618732124567,0.007640582509339,53464.703125,2915,146,2227,1.01209855079651
270142,0.049219083040953,0.077449850738049,-0.024818677455187,53372.6015625,3237,-223,1967,1.00096392631531
270162,-0.043511930853129,0.085963599383831,0.01339715719223,53339.015625,2954,-1326,2252,0.993783950805664
270182,0.028284292668104,0.059237498790026,-0.019708482548595,53305.2109375,5831,-203,1977,0.996557295322418
270202,0.039843615144491,0.13481305539608,0.008334831334651,53282.1875,4719,-309,2172,0.991733968257904
270222,0.019152324646711,0.0650544911623,-0.015552179887891,53417.94140625,3580,-253,2007,1.00077998638153
270242,-0.001880912459455,0.110066555440426,-0.013061673380435,53412.2578125,2983,175,2072,0.982811391353607
270262,-0.049012940376997,0.020975362509489,-0.019181177020073,53462.87890625,6772,1315,1968,0.996538877487183
270282,-0.002914667828009,0.110339269042015,0.005225824657828,53452.48828125,5872,-318,2177,0.983185052871704
270302,0.037535469979048,0.142354413866997,-0.024368913844228,53483.89453125,4605,3676,1950,1.0033346414566
270322,0.010881119407714,0.223907694220543,0.005732091609389,53651.359375,3765,-1972,2128,0.998790740966797
270342,-0.035901479423046,0.28293377161026,-0.017266176640987,53680.8515625,4379,1992,1991,1.00112330913544
270362,0.032091069966555,0.363764971494675,-0.012776820920408,53640.48046875,4730,-1327,2056,1.00102460384369
270382,0.022711977362633,0.374820351600647,-0.005599269177765,53678.18359375,5288,190,2012,1.00269556045532
270402,0.03745336458087,0.265564858913422,-0.045041184872389,53576.2890625,4554,411,1772,1.00270819664001
270422,-0.027240110561252,0.241432890295982,-0.008808392100036,53480.9296875,5683,-1021,1953,0.988004326820374
270442,0.015831308439374,0.130000188946724,-0.027031902223826,53492.03515625,6350,2962,1862,1.0016416311264
270462,-0.046727731823921,0.196327015757561,-0.013205005787313,53497.765625,2129,-46,1952,0.99531102180481
270482,0.026960296556354,0.121398650109768,-0.029947776347399,53486.1328125,5256,1451,1781,1.00322425365448
270502,-0.042700536549091,0.203016266226768,-0.022071117535234,53485.66015625,2965,254,1775,0.996343791484833
270522,-0.025706237182021,0.223533406853676,-0.02657176181674,53804.421875,7858,980,1802,0.997914612293243
270542,-0.002703748876229,0.323001950979233,-0.028009621426463,53853.01171875,3667,11204,964,0.989804565906525
270562,0.018167208880186,0.265152484178543,-0.024818047881127,53914.359375,5814,1404,1994,0.997763514518738
270582,-0.005219573620707,0.346176564693451,-0.007192819844931,53912.77734375,3343,4538,1772,1.01094830036163
270602,0.007525057066232,0.34989407658577,-0.03010474331677,53850.76953125,6629,4242,2135,0.991337954998016
270622,0.010685729794204,0.351776033639908,-0.008607486262918,54339.8125,2996,1708,1654,1.00334405899048
270642,0.026657665148378,0.264610350131988,-0.01850470341742,54309.84765625,5354,4846,2122,0.994924306869507
270662,-0.041663851588965,0.252562373876572,0.000914148578886,54408.67578125,3174,-1746,2055,1.02507376670837
270682,-0.041434716433287,0.166890293359757,0.014571591280401,54368.328125,5867,-2277,2795,0.99328875541687
270702,-0.031531937420368,0.155443117022514,0.019918616861105,54464.6953125,1546,-1004,-968,1.0271509885788
270722,-0.001996471080929,0.033811070024967,0.04834857583046,54659.11328125,5681,1817,2834,0.998268365859985
270742,0.002143900142983,-0.099323533475399,0.041759744286537,54743.796875,4608,-1180,2507,1.02696490287781
270762,-0.014061381109059,-0.14749014377594,0.078565135598183,54356.96484375,1628,-8161,862,1.00232756137848
270782,0.033640641719103,-0.183957934379578,0.08025835454464,54227.3046875,4778,1973,2623,1.03093206882477
270802,0.007184075657278,-0.231110960245132,0.099835120141506,54578.09375,3230,6459,3181,1.00932705402374
270822,0.051958251744509,-0.198101416230202,0.126468449831009,54431.73828125,5216,5262,3258,1.02173244953156
270842,0.038034096360207,-0.281205385923386,0.117959044873714,53966.78125,5518,-7362,3304,1.00642824172974
270862,0.11261560022831,-0.28838899731636,0.139175713062286,54122.5,2051,-5453,2539,0.9994797706604
270882,0.099071301519871,-0.290729463100433,0.167374059557915,54059.23046875,2011,5162,3235,1.01788651943207
270902,0.143046632409096,-0.359983861446381,0.142503201961517,54233.1171875,3234,3500,4507,0.9920294880867
270922,0.079014413058758,-0.456639975309372,0.169010147452354,53681.79296875,850,6618,3733,1.00525939464569
270942,0.100920170545578,-0.530834317207336,0.164878711104393,53152.3984375,53,-8662,3648,1.00063192844391
270962,0.108318209648132,-0.619193255901337,0.137696489691734,53155.3359375,5169,-28007,4412,0.984126925468445
270982,0.077954284846783,-0.767616093158722,0.150997385382652,53139.45703125,1537,4923,3965,0.994641304016113
271002,-0.018736658617854,-1.2293404340744,0.175398111343384,53172.83203125,1822,13036,4212,0.99357259273529
271022,-0.005201243329793,-1.54609799385071,0.144237264990807,53514.91015625,3815,34,5408,0.979965567588806
271042,-0.091939404606819,-1.50223195552826,0.181192770600319,53563.90234375,-65,-8068,6078,0.980357646942139
271062,0.013202712871134,-1.22348117828369,0.156374126672745,53609,-927,13267,4442,0.965527534484863
271082,0.055954772979021,-0.905329763889313,0.137548059225082,53748.48046875,479,6399,4717,0.983086347579956
271102,0.130620911717415,-0.501503527164459,0.132163390517235,53845.00390625,-626,8884,5109,0.973636150360107
271122,0.089964911341667,-0.303411990404129,0.106832332909107,54538.4921875,-3254,-877,6152,0.966548264026642
271142,0.097556658089161,-0.264841854572296,0.129129156470299,54745.05078125,1605,4871,2786,0.981692850589752
271162,-0.015396477654576,-0.202326074242592,0.136594653129578,54854.78125,-2611,8501,6899,1.00216233730316
271182,-0.028054470196366,-0.186482712626457,0.077721744775772,54966.1875,-802,11467,2957,0.975967943668366
271202,-0.127341061830521,-0.008300389163196,0.113021358847618,55155.28515625,-3061,12530,5426,1.00627088546753
271222,-0.070141568779945,0.129911050200462,0.063776351511479,55462.80859375,-6602,5946,10448,1.00299835205078
271242,-0.168896466493607,0.334791272878647,0.091267369687557,55566.796875,-5058,2753,9028,1.00157010555267
271262,-0.129825100302696,0.441518306732178,0.03214617818594,55777.0078125,1317,9028,-763,0.992656290531158
271282,-0.166966438293457,0.488568872213364,0.058406986296177,55887.640625,1161,5770,5907,1.01542472839355
271302,-0.12562520802021,0.462678164243698,0.034969367086887,55956.94921875,1808,7494,5353,1.00773167610168
271322,-0.208665609359741,0.423853546380997,0.011683824472129,56265.68359375,2963,5240,5442,1.00271534919739
271342,-0.219694554805756,0.462925940752029,0.015633121132851,56363.609375,1499,7587,5528,1.013059258461
271362,-0.272910386323929,0.500553965568543,0.017282599583268,56389.38671875,-2791,6100,5462,1.02889060974121
271382,-0.295164108276367,0.559821605682373,-0.015662578865886,56400.66796875,-535,8303,5477,1.00180006027222
271402,-0.236284658312798,0.660617530345917,-0.01978569291532,56463.703125,7568,-1244,5239,1.0224837064743
271422,-0.188735455274582,0.660492599010468,-0.028575768694282,56992.74609375,6213,-1734,5167,1.03909623622894
271442,-0.252002000808716,0.633709847927094,-0.043981403112412,56934.9453125,2485,3212,5167,1.02281832695007
271462,-0.199497327208519,0.517360389232636,-0.030220113694668,56942,872,5606,5342,1.03126835823059
271482,-0.13718019425869,0.492025077342987,-0.066869176924229,56875.8828125,3526,2349,4986,1.02688324451447
271502,-0.077928714454174,0.48584109544754,-0.051789607852697,56806.08203125,2124,-212,5051,1.01807677745819
271522,-0.061862520873547,0.42532405257225,-0.049834117293358,57019.11328125,1188,-927,4997,1.04076611995697
271542,-0.056612156331539,0.321139693260193,-0.077331140637398,56911.1484375,3175,5588,4883,1.02602243423462
271562,0.019820317626,0.337347418069839,-0.018400106579065,56840.75390625,4021,2957,5099,1.01241993904114
271582,0.07484907656908,0.27219620347023,-0.080426208674908,56795.23046875,3741,4060,4758,1.04044890403748
271602,0.110410682857037,0.21155321598053,-0.083890222012997,56655.61328125,2732,-950,4816,1.02838611602783
271622,0.144187241792679,0.185054510831833,-0.048616219311953,56877.90234375,3192,474,4809,1.02583920955658
271642,0.102543942630291,0.065185487270355,-0.085153385996819,56800.25390625,480,1903,4568,1.04746448993683
271662,0.155596718192101,0.033751949667931,-0.057142157107592,56655.00390625,1818,1410,4771,1.0202853679657
271682,0.135255753993988,-0.029381101951003,-0.044124253094196,56590.13671875,4299,154,4723,1.02784657478333
271702,0.10254805535078,-0.155636847019196,-0.057162251323462,56504.6875,-905,2215,4597,1.02326190471649
271722,0.104298889636993,-0.081743307411671,-0.060846921056509,56569.27734375,4757,0,4596,1.0306122303009
271742,0.085330083966255,-0.091390706598759,-0.062321454286575,56471.5390625,1555,308,4593,1.0267049074173
271762,0.056334685534239,-0.051454164087772,-0.048316143453121,56400.109375,4251,3380,4582,1.02772617340088
271782,0.115594483911991,-0.109744139015675,-0.064929403364658,56257.92578125,201,717,4421,1.01884865760803
271802,0.052832443267107,-0.106510981917381,-0.064322151243687,56132.86328125,1350,-706,4372,1.02827429771423
271822,0.050602182745934,-0.096203744411469,-0.056499764323235,56380.1171875,4534,1495,4435,1.03208696842194
271842,0.042928624898195,-0.134457409381866,-0.071887366473675,56232.671875,4224,1157,4228,1.02548050880432
271862,0.037712406367064,-0.123031876981258,-0.055951159447432,56107.84765625,3314,2062,4386,1.02446603775024
271882,0.045929457992315,-0.130053609609604,-0.046526048332453,55996.07421875,3984,385,4340,1.02840316295624
271902,-0.030923172831535,-0.130758866667748,-0.111285276710987,55882.453125,2350,3464,3930,1.04271852970123
271922,0.035655923187733,-0.12560909986496,-0.033570799976587,55271.13671875,-9,-2575,4305,1.01965117454529
271942,0.003250764682889,-0.140055626630783,-0.102271482348442,55169.1328125,1977,1662,3825,1.00985658168793
271962,0.084943920373917,-0.142747268080711,-0.094367206096649,55069.1640625,584,872,3816,1.01802325248718
271982,0.050345625728369,-0.116302862763405,-0.068204939365387,54929.56640625,5976,2367,3858,1.03450393676758
272002,0.052695889025927,-0.214652508497238,-0.125855445861816,54726.15625,3154,595,3421,1.00441467761993
272022,-0.006950492504984,-0.126466512680054,-0.075440652668476,54703.70703125,2368,-2714,3726,1.00832605361938
272042,0.021108804270625,-0.163465559482574,-0.111181862652302,54621.83984375,2633,4256,3333,1.01880323886871
272062,0.041011277586222,-0.095236770808697,-0.105033904314041,54471.0390625,6417,516,3325,1.00353193283081
272082,0.15921850502491,-0.08606243878603,-0.11871562153101,54382.84765625,4158,2978,3074,0.997282087802887
272102,0.203789725899696,-0.078507460653782,-0.171309471130371,54280.5703125,6227,3110,2679,1.01364660263062
272122,0.268829017877579,-0.002863558242098,-0.104860119521618,54135.53125,4904,945,3049,0.999121606349945
272142,0.180173680186272,-0.058388158679009,-0.12739297747612,54260.6328125,-1247,4186,2746,1.00681507587433
272162,0.210429012775421,-0.04956641793251,-0.149028867483139,54166.27734375,1842,3193,2520,1.00954651832581
272182,0.155003741383553,-0.015733040869236,-0.117799215018749,54040.83984375,3334,1492,2636,0.996453106403351
272202,0.151452139019966,-0.017003659158945,-0.138510763645172,53973.98046875,2034,2398,2363,1.00657713413239
272222,0.095152772963047,0.008977747522295,-0.114992365241051,53816.9375,2235,3521,2366,0.987471342086792
272242,0.160101875662804,0.012715191580355,-0.168640077114105,53761.02734375,5516,339,1930,0.987556874752045
272262,0.127847447991371,0.080079339444637,-0.1295375674963,53731.40625,3239,-441,2094,1.01035761833191
272282,0.083309352397919,0.080565981566906,-0.132251173257828,53640.1953125,3671,-111,1969,0.976854503154754
272302,0.077178284525871,0.023943394422531,-0.152036473155022,53642.33203125,5609,1702,1750,1.01130318641663
272322,0.046641234308481,0.017196906730533,-0.105177909135818,53405.9296875,1246,1931,1928,0.994020640850067
272342,0.056864563375712,-0.013485540635884,-0.127176910638809,53408.296875,5055,1657,1634,0.998727977275848
272362,0.047743029892445,0.013395827263594,-0.123003736138344,53301.42578125,242,-743,1647,0.99018532037735
272382,0.019631469622254,0.069778203964233,-0.092718936502934,53256.6171875,617,2709,1769,1.01164174079895
272402,-0.022289076820016,0.034058500081301,-0.091314032673836,53206.05859375,-314,2255,1623,0.994411885738373
272422,-0.045134842395783,0.032209131866694,-0.073299027979374,53294.359375,3530,1305,1733,0.982842087745666
272442,-0.096761241555214,0.076351776719093,-0.032763250172138,53276.71875,4301,2842,1856,0.980424106121063
272462,-0.043627467006445,0.041685316711664,-0.062379222363234,53284.734375,2402,1795,1675,0.993079543113708
272482,-0.100157082080841,0.070042304694653,-0.030756004154682,53307.37890625,3433,1779,1828,0.990429878234863
272502,-0.170447498559952,0.082501761615276,-0.021748498082161,53311.9296875,6020,1461,1842,0.992038369178772
272522,-0.159742087125778,0.046553656458855,-0.047765545547009,53223.9609375,4261,1127,1665,0.991050064563751
272542,-0.195094063878059,0.081602424383164,-0.002645998029038,53301.3515625,4141,1695,1894,0.989845156669617
272562,-0.150557473301887,0.036124691367149,-0.029913349077106,53128.58203125,-162,2636,1665,0.980899155139923
272582,-0.183322951197624,0.094056993722916,-0.018917929381132,53156.74609375,1538,1076,1737,1.00522422790527
272602,-0.123489893972874,0.094698943197727,-0.007182398345321,53139.12890625,5346,452,1819,1.00115120410919
272622,-0.229804679751396,0.011438892222941,-0.01758199557662,53243.11328125,4400,-662,1732,0.991879522800446
272642,-0.16626912355423,-0.035181868821383,-0.003722009947523,53279.78125,5925,3353,1786,0.983330547809601
272662,-0.182490646839142,-0.01290271896869,0.004257474094629,53189.28515625,8233,1435,1900,0.996220469474792
272682,-0.128310590982437,0.043735280632973,-0.019188227131963,53129.78125,5360,1613,1654,0.983469069004059
272702,-0.075855083763599,0.035587854683399,-0.003413623198867,53133.7890625,7390,-500,1908,0.99930477142334
272722,-0.034648895263672,0.109523385763168,0.008533134125173,53078.64453125,6615,981,1791,0.977088928222656
272742,-0.003544310806319,-0.025066941976547,-0.03144458681345,53029.9296875,4852,1404,1558,0.995109558105469
272762,-0.044889867305756,-0.010329302400351,0.014791913330555,52961.859375,1187,129,1886,0.977175176143646
272782,0.034741204231978,-0.078965306282044,-0.011861842125654,52992.29296875,2786,2644,1490,0.994299113750458
272802,-0.094943456351757,-0.089276388287544,-0.012694207951427,53082.60546875,-2279,-23,1581,0.975910305976868
272822,-0.137726053595543,-0.044334456324577,0.00180834333878,53240.65625,1019,708,2254,0.983581006526947
272842,-0.258627831935883,-0.085160166025162,0.003081235801801,53335.40625,4047,915,2291,0.987388789653778
272862,-0.366718858480453,-0.065741203725338,-0.018254553899169,53240.703125,6203,2195,2132,1.0017261505127
272882,-0.49552908539772,-0.02912069298327,0.017811996862292,53200.37890625,4107,536,643,0.981014132499695
272902,-0.506959974765778,-0.028686035424471,-0.013203230686486,53162.56640625,7372,-733,1638,1.00354433059692
272922,-0.432150840759277,-0.030182229354978,-0.013372947461903,53331.875,5826,602,2114,0.986871719360352
272942,-0.319392293691635,-0.057154510170221,0.022781793028116,53342.62890625,6892,-900,1554,0.990109384059906
272962,-0.128515213727951,-0.073659345507622,0.003278844058514,53370.5390625,4028,3122,2304,0.995408535003662
272982,-0.03941610455513,-0.045309774577618,0.001356959808618,53356.37109375,1279,1524,1968,0.989013314247131
273002,0.100999273359776,-0.021080346778035,0.015658956021071,53361.49609375,3346,479,1035,0.99603408575058
273022,0.090724915266037,-0.011551540344954,-0.016593407839537,53709.05078125,772,1150,1823,0.9792440533638
273042,0.187844589352608,-0.020394545048475,-0.002849116222933,53737.00390625,2764,1491,2122,1.00070440769196
273062,0.136653259396553,0.026915216818452,0.004204410593957,53749.23828125,16,978,1721,0.993613302707672
273082,0.177607014775276,-0.053164359182119,-0.019375497475267,53770.22265625,1755,1790,2022,1.00759947299957
273102,0.126694366335869,-0.021314991638064,0.028100669384003,53771.86328125,1977,1387,2090,0.991587579250336
273122,0.157104060053825,-0.022671993821859,-0.010094505734742,53711.7109375,3050,1140,745,1.00114977359772
273142,0.105494350194931,0.027557026594877,0.016039174050093,53691.3125,3046,1118,1815,0.999047696590424
273162,0.122601196169853,0.035832177847624,0.010713591240347,53726.63671875,4611,2424,1658,1.00287270545959
273182,0.172935739159584,0.001176518620923,-0.039247307926416,53684.04296875,6438,1973,1506,0.996145486831665
273202,0.168534249067307,0.015485942363739,0.009463192895055,53709.6484375,3613,-493,1411,1.00686299800873
273222,0.233172342181206,0.011000752449036,-0.037252698093653,53829.109375,1004,2803,1391,1.01380884647369
273242,0.170923560857773,0.0370570756495,-0.013180567882955,53854.41796875,389,-1075,1217,1.00578451156616
273262,0.156628280878067,0.05623571574688,-0.04159489274025,53830.4375,2659,1057,1076,0.993491053581238
273282,0.168272525072098,0.038942608982325,-0.041501797735691,53833.76171875,2488,488,1232,1.00589966773987
273302,0.189953505992889,0.026729796081781,-0.010554877109826,53772.57421875,2970,1959,1327,1.01074814796448
273322,0.147945314645767,-0.02816378697753,-0.060618568211794,54053.53125,3522,2369,1099,0.995550155639648
273342,0.083387494087219,-0.005644421093166,-0.048753686249256,53995.12109375,2059,-862,974,1.01744949817657
273362,0.05521135777235,0.003712958423421,-0.060155961662531,54019.17578125,206,977,998,0.993022978305817
273382,0.058045517653227,0.038917601108551,-0.052765633910894,53993.91015625,4149,-111,1052,1.02193021774292
273402,0.027788983657956,0.044554468244314,-0.040024925023317,53988.98828125,2460,2075,794,0.998553991317749
273422,0.049241043627262,-0.051599226891995,-0.035798724740744,54048.97265625,4253,952,1047,1.00973320007324
273442,0.035827625542879,0.058940913528204,-0.037692487239838,54014.53125,2315,1114,989,0.999788165092468
273462,0.038334485143423,-0.015831721946597,-0.057166792452335,54001.07421875,2326,2257,636,1.01829898357391
273482,-0.019843390211463,0.051259774714708,-0.019388867542148,53978.06640625,2342,859,1095,0.994876444339752
273502,-0.012168364599347,-0.006118259392679,-0.042386576533318,53950.94921875,2463,2526,594,1.00701057910919
273522,-0.046907644718886,-0.050315372645855,-0.020824303850532,54004.08203125,2328,1765,774,0.988771080970764
273542,0.02122138813138,-0.009102023206651,-0.031799521297217,54018.31640625,3893,3472,698,1.00918400287628
273562,-0.0044049276039,0.019789528101683,-0.022102618589997,53993.53515625,2079,598,749,1.00025844573975
273582,0.02511603012681,0.010782528668642,-0.031153840944171,54028.18359375,3868,-31,704,1.01066243648529
273602,-0.050796754658222,-0.003370026126504,-0.021355031058192,53999.64453125,2960,1782,593,0.995502412319183
273622,-0.035500131547451,-0.060713939368725,-0.043827574700117,54068.09765625,1698,851,462,1.0140186548233
273642,-0.071544714272022,0.012597831897438,-0.025297626852989,54007.47265625,3631,1138,610,1.00211822986603
273662,-0.08669426292181,-0.073167532682419,-0.027739444747567,54039.14453125,1985,1593,446,1.00877737998962
273682,-0.198067009449005,-0.036521144211292,-0.014756654389203,54010.41796875,2085,1221,653,0.993431150913238
273702,-0.140879571437836,-0.004164983984083,-0.039182908833027,54034.57421875,1339,2576,410,0.997546911239624
273722,-0.162372961640358,-0.014726831577718,-0.018351830542088,53851.25,3025,624,466,1.02072048187256
273742,-0.092236451804638,0.052946418523789,-0.016509920358658,53849.82421875,2334,1365,516,1.00086879730225
273762,-0.142405435442925,0.05581733584404,-0.013682078570128,53788.8125,2100,-104,496,1.01123881340027
273782,-0.151557564735413,0.005449364427477,-0.014591418206692,53789,4651,3160,535,1.00040829181671
273802,-0.240106001496315,-0.006716051138937,0.018550610169768,53708.71875,763,1460,649,1.01093459129334
273822,-0.243327990174294,-0.02365936525166,-0.004057513549924,53810.0390625,2916,1338,588,1.0059300661087
273842,-0.197041645646095,0.038794301450253,0.020821925252676,53736.30078125,2824,158,724,1.00469887256622
273862,-0.236763492226601,-0.015856590121985,0.034022275358439,53767.43359375,4065,1647,792,1.00460433959961
273882,-0.195895791053772,0.008122877217829,0.04681646451354,53722.8984375,3733,1522,949,0.993356585502624
273902,-0.174169719219208,0.004301487933844,0.018520258367062,53752.68359375,4595,2742,780,1.0026159286499
273922,-0.091788336634636,-0.006590276025236,0.059494659304619,53824.05078125,1830,-2,1017,0.999487817287445
273942,-0.041094783693552,-0.01147120911628,0.035810075700283,53829.3828125,4060,1083,989,1.0065815448761
273962,-0.0693833604455,0.04194663092494,0.06477252393961,53778.609375,1373,1429,1072,1.01092553138733
273982,0.026730008423328,0.000906847184524,0.042781993746758,53785.89453125,1486,1080,996,0.991601526737213
274002,0.039004147052765,0.054250009357929,0.069466643035412,53796.64453125,2773,117,1181,1.01025116443634
274022,0.072864800691605,-0.030109336599708,0.061129789799452,53971.19140625,464,1424,1211,0.99829113483429
274042,0.024609150364995,0.002164304256439,0.086581073701382,53972.39453125,2299,1106,1511,0.992757201194763
274062,0.059055518358946,-0.038885209709406,0.067786417901516,53988.734375,2266,1338,1306,0.989818692207336
274082,0.105494357645512,0.01279971562326,0.080778934061527,53964.16015625,4947,1609,1530,1.01230537891388
274102,0.112926587462425,0.024558423087001,0.0620197057724,53985.4296875,2726,1635,1462,0.99350243806839
274122,0.171768367290497,-0.027279999107123,0.06556610763073,53939.1484375,3013,763,1559,1.0106018781662
274142,0.137284278869629,-0.01183304656297,0.08313325047493,53903.8046875,2778,2204,1744,0.988186180591583
274162,0.218938037753105,-0.018821710720658,0.06979288905859,53855.51953125,1467,2443,1655,1.01117062568665
274182,0.179696589708328,-0.010377048514783,0.107220843434334,53845.046875,233,405,2005,1.00048828125
274202,0.160681128501892,0.0408855676651,0.064694359898567,53898.015625,169,1276,1846,1.00124990940094
